{
  "data":[
      {
          "name":"测试企业1",
          "registerAddress":"测试地址",
          "city":"东莞市",
          "area":"东城街道",
          "ownerName":"测试联系人",
          "telePhone":"123132132",
          "location":"113.34454884,22.49121121"
      },
      {
        "name":"测试企业2",
        "registerAddress":"测试地址",
        "city":"东莞市",
        "area":"东城街道",
        "ownerName":"测试联系人",
        "telePhone":"123132132",
        "location":"113.5675667575,22.678686"
    },
    {
        "name":"测试企业3",
        "registerAddress":"测试地址",
        "city":"东莞市",
        "area":"",
        "ownerName":"测试联系人",
        "telePhone":"123132132",
        "location":"113.8978465,22.456577"
    },
    {
        "name":"测试企业4",
        "registerAddress":"测试地址",
        "city":"东莞市",
        "area":"东城街道",
        "ownerName":"测试联系人",
        "telePhone":"123132132",
        "location":"113.8662342,23.12312424"
    },
    {
        "name":"测试企业5",
        "registerAddress":"测试地址",
        "city":"东莞市",
        "area":"东城街道",
        "ownerName":"测试联系人",
        "telePhone":"123132132",
        "location":"113.8662342,23.12312424"
    }
  ]  
}